City_ID,City,Lat,Lng,Max Temp,Humidity,Cloudiness,Wind Speed,Country,Date
0,port-aux-francais,-49.35,70.2167,39.74,66,73,19.62,TF,1714011357
1,adamstown,-25.066,-130.1015,73.45,89,3,21.47,PN,1714011357
2,kailua-kona,19.6406,-155.9956,82.36,79,100,10.36,US,1714011358
3,port mathurin,-19.6833,63.4167,79.86,69,100,17.2,MU,1714011358
4,nelson bay,-32.7167,152.15,71.01,78,99,4.0,AU,1714011359
5,howrah,22.5892,88.3103,91.4,52,40,6.91,IN,1714011359
6,yellowknife,62.456,-114.3525,41.56,71,75,12.66,CA,1714011361
7,grytviken,-54.2811,-36.5092,28.22,78,23,10.65,GS,1714011364
8,puerto natales,-51.7236,-72.4875,36.05,100,100,2.3,CL,1714011088
9,tiksi,71.6872,128.8694,12.38,83,100,14.79,RU,1714011253
10,persembe,41.0656,37.7714,63.82,36,100,6.82,TR,1714011357
11,hadibu,12.65,54.0333,81.43,77,52,5.06,YE,1714011371
12,blackmans bay,-43.0167,147.3167,57.33,63,100,1.99,AU,1714011372
13,pisco,-13.7,-76.2167,69.85,78,0,4.61,PE,1714011111
14,olonkinbyen,70.9221,-8.7187,29.19,82,9,6.91,SJ,1714011094
15,tartagal,-22.5164,-63.8013,63.21,98,100,4.38,AR,1714011377
16,gisborne,-38.6533,178.0042,63.82,55,100,12.46,NZ,1714011190
17,elliot lake,46.3834,-82.6331,28.06,40,2,1.14,CA,1714011380
18,avarua,-21.2078,-159.775,82.45,69,75,6.91,CK,1714011381
19,twon-brass,4.3151,6.2418,84.11,80,100,10.98,NG,1714011382
20,buka,40.8108,69.1986,67.93,47,43,4.27,UZ,1714011383
21,waitangi,-43.9535,-176.5597,60.82,88,98,7.0,NZ,1714011384
22,kidal,18.4411,1.4078,85.64,13,2,10.74,ML,1714011385
23,coquimbo,-29.9533,-71.3436,59.99,76,4,4.9,CL,1714011247
24,ar rutbah,33.0381,40.2848,69.06,27,0,1.79,IQ,1714011386
25,zhezqazghan,47.7833,67.7667,48.78,61,75,24.61,KZ,1714011386
26,ushuaia,-54.8,-68.3,46.06,61,0,3.44,AR,1714011164
27,saipan,15.1355,145.701,90.3,58,40,17.27,MP,1714011388
28,vylkove,45.4021,29.586,55.96,70,73,3.87,UA,1714011388
29,cabinda,-5.55,12.2,79.75,90,99,2.04,AO,1714011389
30,nova sintra,14.8667,-24.7167,73.42,80,100,14.79,CV,1714011389
31,whitehorse,60.7161,-135.0538,56.17,22,40,5.75,CA,1714011390
32,petropavlovsk-kamchatsky,53.0452,158.6483,52.39,35,20,17.9,RU,1714011236
33,kristiansund,63.1115,7.732,34.45,80,75,4.61,NO,1714011395
34,revuca,48.6835,20.1173,37.58,96,100,2.48,SK,1714011296
35,bandar-e lengeh,26.5579,54.8807,73.51,94,0,0.0,IR,1714011398
36,itaituba,-4.2761,-55.9836,75.47,99,100,1.23,BR,1714011399
37,qaqortoq,60.7167,-46.0333,31.21,87,33,6.24,GL,1714011357
38,kulhudhuffushi,6.6221,73.07,84.04,73,31,4.34,MV,1714011400
39,san antonio de pale,-1.4014,5.6325,82.76,79,99,11.81,GQ,1714011401
40,selfoss,63.9331,-20.9971,42.76,73,90,3.91,IS,1714011402
41,nadym,65.5333,72.5167,24.96,91,100,5.57,RU,1714011402
42,phillip island,-38.4835,145.231,63.23,69,80,18.99,AU,1714011403
43,sitka,57.0531,-135.33,49.89,76,40,10.36,US,1714011403
44,sabha,27.0377,14.4283,72.43,28,3,8.46,LY,1714011404
45,kerikeri,-35.2268,173.9474,68.92,74,100,7.52,NZ,1714011405
46,invercargill,-46.4,168.35,56.01,70,0,1.01,NZ,1714011406
47,mirny,62.5353,113.9611,20.23,82,100,8.99,RU,1714011406
48,mugia,43.1041,-9.2179,52.92,84,74,8.32,ES,1714011407
49,ad-damazin,11.7891,34.3592,87.01,22,95,5.14,SD,1714011410
50,kapuskasing,49.4169,-82.4331,26.6,59,28,4.61,CA,1714011263
51,bandar lampung,-5.4254,105.258,84.06,81,51,3.11,ID,1714011211
52,katabu,-4.9333,122.5167,85.24,75,95,5.7,ID,1714011413
53,bethel,41.3712,-73.414,53.91,56,0,10.36,US,1714011134
54,kodiak,57.79,-152.4072,38.71,93,100,12.66,US,1714011414
55,smara,26.7384,-11.6719,64.13,65,8,7.94,EH,1714011415
56,edinburgh of the seven seas,-37.0676,-12.3116,62.33,88,78,18.3,SH,1714011415
57,ostseebad binz,54.3999,13.6105,40.95,79,82,11.88,DE,1714011416
58,bardai,11.65,7.2333,84.94,34,20,8.5,NG,1714011417
59,stanley,54.868,-1.6985,39.78,88,0,14.97,GB,1714011417
60,wladyslawowo,54.7909,18.4009,33.94,81,34,6.64,PL,1714011418
61,talnakh,69.4865,88.3972,18.21,93,91,3.91,RU,1714011418
62,jinchang,38.4953,102.1739,67.1,15,0,1.05,CN,1714011419
63,mao,39.8885,4.2658,52.36,66,0,3.44,ES,1714011419
64,mangochi,-14.4782,35.2645,66.9,91,7,6.4,MW,1714011332
65,siliguri,26.7,88.4333,85.82,21,0,4.09,IN,1714011420
66,port elizabeth,-33.918,25.5701,63.1,82,20,13.8,ZA,1714011421
67,albany,42.6001,-73.9662,39.63,73,1,3.0,US,1714011172
68,ribeira grande,38.5167,-28.7,59.77,83,4,11.99,PT,1714011329
69,mae sai,20.4335,99.8762,93.97,33,0,2.33,TH,1714011422
70,raduzhny,62.0961,77.475,19.31,92,80,4.74,RU,1714011426
71,colonia general alfredo stroessner,-25.3667,-55.7,69.08,100,46,4.16,PY,1714011432
72,virar,19.4667,72.8,84.29,65,0,4.72,IN,1714011433
73,porto novo,6.4965,2.6036,81.72,84,100,6.85,BJ,1714011165
74,waingapu,-9.6567,120.2641,84.9,74,35,13.49,ID,1714011433
75,port alfred,-33.5906,26.891,63.18,89,100,3.0,ZA,1714011434
76,ilulissat,69.2167,-51.1,32.02,100,100,6.91,GL,1714011434
77,mili,6.0815,171.735,82.35,81,100,22.01,MH,1714011438
78,colares,38.7992,-9.4469,57.33,84,10,20.0,PT,1714011439
79,san rafael,-34.6177,-68.3301,57.15,54,0,9.19,AR,1714011183
80,vila franca do campo,37.7167,-25.4333,59.41,78,24,7.14,PT,1714011439
81,huillapima,-28.7253,-65.9787,59.54,90,55,3.04,AR,1714011440
82,saynshand,44.8824,110.1163,47.28,38,12,16.98,MN,1714011440
83,folkston,30.8305,-82.0098,66.02,73,0,2.46,US,1714011441
84,pedregal,8.3667,-82.4333,79.2,76,100,3.71,PA,1714011442
85,ulysses,37.5814,-101.3552,65.35,59,100,17.27,US,1714011442
86,west island,-12.1568,96.8225,82.38,78,100,18.41,CC,1714011443
87,canutama,-6.5339,-64.3831,74.43,94,100,0.43,BR,1714011176
88,haiku-pauwela,20.9219,-156.3051,75.22,76,40,24.16,US,1714011445
89,georgetown,5.4112,100.3354,87.73,74,20,3.44,MY,1714011259
90,ust-nera,64.5667,143.2,36.18,99,98,4.23,RU,1714011447
91,atafu village,-8.5421,-172.5159,85.32,72,67,6.91,TK,1714011448
92,bredasdorp,-34.5322,20.0403,59.54,83,69,2.82,ZA,1714011449
93,hithadhoo,-0.6,73.0833,84.7,71,100,7.07,MV,1714011450
94,hawaiian paradise park,19.5933,-154.9731,78.31,78,100,9.22,US,1714011332
95,mount pearl,47.5166,-52.7813,50.34,98,100,27.63,CA,1714010966
96,thompson,55.7435,-97.8558,46.56,34,20,4.61,CA,1714011453
97,kapit,2.0167,112.9333,84.09,74,91,0.78,MY,1714011323
98,abu jibeha,11.4562,31.2285,83.21,11,100,5.17,SD,1714011456
99,susuman,62.7833,148.1667,28.98,90,89,3.0,RU,1714011457
100,castillos,-34.1667,-53.8333,52.09,83,1,3.53,UY,1714011457
101,brisas de zicatela,15.8369,-97.0419,84.72,65,0,2.3,MX,1714011458
102,papao,-17.75,-149.55,85.68,69,0,3.04,PF,1714011458
103,hotan,37.0997,79.9269,71.64,13,10,14.18,CN,1714011458
104,remire-montjoly,4.9167,-52.2667,78.84,94,100,3.44,GF,1714011305
105,margaret river,-33.95,115.0667,63.68,48,100,13.6,AU,1714011388
106,encruzilhada do sul,-30.5439,-52.5219,52.61,74,85,6.8,BR,1714011308
107,bairnsdale,-37.8333,147.6167,63.05,66,62,4.0,AU,1714011462
108,rongelap,11.1635,166.8941,81.27,83,100,18.75,MH,1714011463
109,tazovsky,67.4667,78.7,19.09,97,100,5.68,RU,1714011463
110,saint-philippe,-21.3585,55.7679,74.79,84,42,7.23,RE,1714011466
111,yurty,56.0498,97.6348,32.43,57,15,4.81,RU,1714011467
112,pandan,14.0453,124.1694,86.05,59,29,1.72,PH,1714011467
113,ipira,-12.1583,-39.7372,73.15,95,30,6.53,BR,1714011468
114,swainsboro,32.5974,-82.3337,64.29,69,27,6.51,US,1714011469
115,iqaluit,63.7506,-68.5145,15.53,72,100,12.66,CA,1714011469
116,east london,-33.0153,27.9116,68.34,75,75,10.87,ZA,1714011470
117,papatowai,-46.5619,169.4708,54.73,63,34,13.11,NZ,1714011471
118,pradera,3.4211,-76.2447,75.88,87,100,3.2,CO,1714011474
119,pacific grove,36.6177,-121.9166,58.39,82,100,7.0,US,1714011475
120,college,64.8569,-147.8028,60.75,32,75,4.61,US,1714011478
121,petoskey,45.3733,-84.9553,37.71,46,0,6.91,US,1714011479
122,alpine,32.835,-116.7664,56.95,78,75,12.66,US,1714011479
123,luwuk,-0.9516,122.7875,82.56,73,91,3.85,ID,1714011480
124,yarkovo,57.4028,67.0786,31.46,51,100,9.4,RU,1714011480
125,muzaffarabad,34.37,73.4711,64.67,60,7,4.29,PK,1714011481
126,colonia,50.9333,6.95,41.83,85,100,13.8,DE,1714011190
127,aasiaat,68.7098,-52.8699,29.19,96,100,12.95,GL,1714011482
128,nuuk,64.1835,-51.7216,34.41,75,100,26.46,GL,1714011357
129,punta arenas,-53.15,-70.9167,41.11,87,75,3.44,CL,1714011483
130,labrador city,52.9463,-66.9114,19.18,53,100,12.66,CA,1714011484
131,mogocha,53.7333,119.7667,37.9,62,100,13.02,RU,1714011484
132,longyearbyen,78.2186,15.6401,28.24,74,20,2.3,SJ,1714011491
133,tangalle,6.024,80.7911,80.78,83,88,4.21,LK,1714011492
134,kununurra,-15.7667,128.7333,91.38,43,9,14.97,AU,1714011492
135,afaahiti,-17.75,-149.2833,84.07,72,2,4.0,PF,1714011462
136,vung tau,10.346,107.0843,85.95,69,100,10.04,VN,1714011493
137,bilibino,68.0546,166.4372,18.0,71,16,2.13,RU,1714011493
138,hermanus,-34.4187,19.2345,54.81,84,62,3.04,ZA,1714011254
139,lihue,21.9789,-159.3672,81.64,79,100,18.41,US,1714011496
140,quellon,-43.1167,-73.6167,51.3,84,62,16.26,CL,1714011499
141,puerto baquerizo moreno,-0.9,-89.6,77.22,87,21,5.99,EC,1714011276
142,cadale,2.7603,46.3222,84.18,78,100,9.53,SO,1714011500
143,keflavik,64.0049,-22.5624,44.51,87,75,5.75,IS,1714011500
144,iskateley,67.6803,53.1512,20.01,82,10,13.0,RU,1714011497
145,pasighat,28.0667,95.3333,76.87,57,28,3.56,IN,1714011502
146,manismata,-2.4667,111.0333,87.21,64,40,3.15,ID,1714011502
147,rabigh,22.7986,39.0349,82.15,58,0,2.39,SA,1714011506
148,kourou,5.1552,-52.6478,78.85,75,98,5.64,GF,1714011449
149,christchurch,-43.5333,172.6333,75.4,42,20,9.22,NZ,1714011320
150,horta,38.5333,-28.6333,60.03,83,6,10.0,PT,1714011259
151,vilyuysk,63.7553,121.6247,15.01,85,100,13.0,RU,1714011293
152,kudahuvadhoo,2.6708,72.8944,82.58,79,100,7.9,MV,1714011510
153,hamilton,39.1834,-84.5333,46.72,74,0,13.8,US,1714011052
154,vilyuchinsk,52.9306,158.4028,53.87,60,100,11.39,RU,1714011511
155,codrington,-38.2667,141.9667,58.3,63,97,14.92,AU,1714011512
156,hasaki,35.7333,140.8333,70.29,74,66,3.24,JP,1714011512
157,sint michiel liber,12.15,-68.9833,82.22,89,20,13.8,CW,1714011516
158,kuta,-8.7233,115.1723,86.0,84,20,8.05,ID,1714011435
159,sale,34.0389,-6.8166,56.64,100,83,0.0,MA,1714011521
160,siguiri,11.6667,-9.5,89.19,23,41,3.76,GN,1714011522
161,sodra sandby,56.5667,16.6167,31.89,94,21,5.5,SE,1714011525
162,wailua homesteads,22.0669,-159.378,81.03,84,100,18.41,US,1714011526
163,tegueste,28.5167,-16.3167,65.08,65,0,9.22,ES,1714011528
164,gadzhiyevo,69.2551,33.3362,26.65,93,100,5.1,RU,1714011528
165,chos malal,-37.3781,-70.2709,52.0,40,3,12.66,AR,1714011530
166,san pedro,14.35,121.0167,94.23,64,20,5.75,PH,1714011536
167,winnemucca,40.973,-117.7357,60.85,48,20,19.57,US,1714011536
168,san luis de la loma,17.2706,-100.8939,80.67,65,0,7.85,MX,1714011537
169,thunder bay,48.4001,-89.3168,30.18,69,20,5.75,CA,1714011537
170,queenstown,-31.8976,26.8753,56.44,86,79,1.28,ZA,1714011538
171,lompoc,34.6391,-120.4579,61.02,75,0,12.66,US,1714011538
172,port hueneme,34.1478,-119.1951,63.07,79,100,14.97,US,1714011538
173,posto fiscal rolim de moura,-13.0833,-62.2667,76.41,91,61,2.75,BR,1714011540
174,talcahuano,-36.7167,-73.1167,56.88,77,100,9.22,CL,1714011540
175,vadso,70.0744,29.7487,34.68,86,100,11.5,NO,1714011541
176,magadan,59.5667,150.8,31.53,95,100,2.71,RU,1714011518
177,baker city,44.7749,-117.8344,60.51,32,0,24.16,US,1714011542
178,colac,-38.3333,143.5833,58.17,66,100,9.82,AU,1714011543
179,kill devil hills,36.0307,-75.676,61.99,69,75,0.0,US,1714011285
180,fort bragg,35.139,-79.006,64.81,75,40,0.0,US,1714011438
181,isafjordur,66.0755,-23.124,37.29,84,14,3.71,IS,1714011551
182,henderson,36.0397,-114.9819,81.84,16,0,17.27,US,1714011380
183,utrik,11.2278,169.8474,80.92,79,92,18.61,MH,1714011552
184,nassau,40.7507,-73.5829,60.67,57,100,13.8,US,1714011552
185,santa elena de uairen,4.6167,-61.1333,69.17,87,100,2.73,VE,1714011553
186,chonchi,-42.6128,-73.8092,50.13,86,56,10.8,CL,1714011322
187,hailey,43.5196,-114.3153,58.86,41,100,10.36,US,1714011468
188,feodosiya,45.0333,35.3833,56.7,79,100,2.73,UA,1714011556
189,crane,31.3974,-102.3501,77.0,60,36,23.73,US,1714011557
190,akureyri,65.6835,-18.0878,31.93,86,0,3.44,IS,1714011557
191,kyaikkami,16.08,97.5675,85.39,71,79,4.79,MM,1714011479
192,xiaoweizhai,26.1903,107.5125,63.03,95,100,2.57,CN,1714011558
193,inhambane,-23.865,35.3833,73.56,82,35,2.91,MZ,1714011558
194,happy valley-goose bay,53.3168,-60.3315,34.11,75,75,10.36,CA,1714011312
195,uturoa,-16.7333,-151.4333,82.94,72,0,5.75,PF,1714011299
196,port macquarie,-31.4333,152.9167,65.77,81,100,9.48,AU,1714011285
197,manicore,-5.8092,-61.3003,73.96,99,66,1.95,BR,1714011565
198,tolanaro,-25.0319,46.9987,72.52,89,73,7.34,MG,1714011566
199,lebu,-37.6167,-73.65,57.02,89,99,10.09,CL,1714011348
200,igarka,67.4667,86.5833,19.02,90,82,8.01,RU,1714011570
201,arraial do cabo,-22.9661,-42.0278,77.29,79,100,3.96,BR,1714011319
202,guerrero negro,27.9769,-114.0611,60.39,73,54,18.84,MX,1714011571
203,oltinko'l,40.8011,72.1634,69.33,40,21,2.73,UZ,1714011572
204,cockburn town,21.4612,-71.1419,78.24,75,23,17.22,TC,1714011572
205,axim,4.8699,-2.2405,81.79,87,100,6.06,GH,1714011576
206,anadyr,64.75,177.4833,27.1,92,100,15.66,RU,1714011577
207,vorkuta,67.5,64.0,5.11,98,100,3.0,RU,1714011577
208,pont rouge,48.8833,-72.0825,23.29,57,24,15.32,CA,1714011578
209,mishan,45.55,131.8833,59.63,55,3,13.44,CN,1714011578
210,valparaiso,-33.0393,-71.6273,47.84,87,0,5.75,CL,1714011553
211,lerwick,60.1545,-1.1494,39.2,68,8,16.82,GB,1714011593
212,la passe,45.5549,-0.8967,51.98,88,91,12.06,FR,1714011316
213,walvis bay,-22.9575,14.5053,60.24,81,0,7.56,NA,1714011594
214,shangqiu,34.45,115.65,77.92,37,11,11.92,CN,1714011594
215,yaren,-0.5472,166.916,84.0,75,72,10.94,NR,1714011372
216,poronaysk,49.2167,143.1167,38.16,91,100,7.63,RU,1714011597
217,shambu,9.5667,37.1,57.49,56,50,1.05,ET,1714011601
218,vallenar,-28.5708,-70.7581,65.44,60,7,2.15,CL,1714011601
219,sawakin,19.1059,37.3321,82.09,68,2,6.4,SD,1714011602
220,leku,6.8667,38.45,60.42,85,95,3.56,ET,1714011603
221,aydarken,39.9443,71.3429,50.81,49,12,6.76,KG,1714011603
222,gulf shores,30.246,-87.7008,71.65,76,0,4.0,US,1714011583
223,barra de santo antonio,-9.4047,-35.5072,78.08,81,18,4.34,BR,1714011604
224,saint croix,17.7397,-64.7388,77.95,86,14,1.99,VI,1714011605
225,margate,51.3813,1.3862,42.69,72,100,1.01,GB,1714011605
226,enewetak,11.3474,162.3373,82.08,79,93,17.43,MH,1714011606
227,tulun,54.5611,100.5792,34.74,61,27,5.12,RU,1714011610
228,wajir,1.7471,40.0573,76.08,88,100,6.11,KE,1714011614
229,greenville,35.6127,-77.3663,59.16,93,40,1.01,US,1714011614
230,camargo,27.6667,-105.1667,82.26,10,100,9.08,MX,1714011615
231,kamikawa,43.84,142.7711,55.67,86,100,3.09,JP,1714011616
232,pingliang,35.5392,106.6861,67.53,35,1,2.19,CN,1714011618
233,puerto ayora,-0.7393,-90.3518,77.56,95,8,5.26,EC,1714011618
234,la ronge,55.1001,-105.2842,53.85,32,75,12.66,CA,1714011618
235,ta`u,-14.2336,-169.5144,83.64,72,64,11.68,AS,1714011619
236,kavalerovo,44.2661,135.0572,52.56,98,100,1.01,RU,1714011619
237,mingelchaur,40.764,47.0595,57.69,54,17,0.63,AZ,1714011620
238,moose jaw,50.4001,-105.5344,61.07,25,75,11.5,CA,1714011428
239,aghajari,30.7006,49.8315,70.02,56,0,4.61,IR,1714011624
240,aginskoye,51.1,114.53,42.31,39,26,20.04,RU,1714011628
241,sao tome,0.3365,6.7273,82.13,83,98,8.03,ST,1714011423
242,isangel,-19.55,169.2667,82.51,83,40,6.91,VU,1714011629
243,chancay,-11.5714,-77.2672,68.27,90,84,4.38,PE,1714011629
244,taoudenni,22.6783,-3.9836,86.14,13,0,9.64,ML,1714011630
245,port augusta,-32.5,137.7667,63.75,47,96,14.41,AU,1714011633
246,den burg,53.0542,4.7972,44.58,75,100,3.44,NL,1714011633
247,holualoa,19.6228,-155.9522,78.64,81,100,10.36,US,1714011456
248,lashio,22.9333,97.75,78.87,53,20,1.39,MM,1714011635
249,camana,-16.6228,-72.7111,69.33,89,71,8.12,PE,1714011636
250,burnie,-41.0667,145.9167,58.44,59,100,14.27,AU,1714011637
251,chipinge,-20.1883,32.6236,59.02,80,0,2.28,ZW,1714011637
252,kapa'a,22.0752,-159.319,82.38,84,100,18.41,US,1714011640
253,harper,4.375,-7.7169,81.61,82,92,6.62,LR,1714011638
254,sorong,-0.8833,131.25,85.3,71,94,3.11,ID,1714011644
255,port-vila,-17.7338,168.3219,85.6,74,75,6.91,VU,1714011645
256,eastham,41.8301,-69.9739,48.97,74,0,17.0,US,1714011427
257,la baneza,42.3003,-5.8977,44.35,71,85,6.44,ES,1714011647
258,orapa,-21.2833,25.3667,66.24,46,0,3.38,BW,1714011648
259,ljusdal,61.8288,16.0913,29.43,91,97,2.51,SE,1714011648
260,markala,13.7021,-6.0659,92.35,15,99,8.52,ML,1714011651
261,praia da vitoria,38.7333,-27.0667,61.05,77,75,10.27,PT,1714011652
262,moa,20.6569,-74.9403,76.69,87,84,9.71,CU,1714011653
263,melekhovo,56.2773,41.2935,46.72,60,99,5.01,RU,1714011653
264,carmo do rio verde,-15.3536,-49.7075,74.57,68,64,3.33,BR,1714011657
265,saint-pierre,-21.3393,55.4781,74.88,73,0,5.75,RE,1714011507
266,kajaani,64.2273,27.7285,33.85,75,0,8.05,FI,1714011658
267,st. john's,47.5649,-52.7093,51.19,97,100,28.77,CA,1714011635
268,doctor alberto oviedo mota,32.2275,-115.1697,80.73,20,0,18.59,MX,1714011661
269,zalari,53.5584,102.5065,36.66,51,61,7.23,RU,1714011662
270,nar'yan-mar,67.6713,53.087,20.1,82,10,13.0,RU,1714011557
271,thanh hoa,19.8,105.7667,83.95,80,68,3.09,VN,1714011561
272,victoria falls,-17.9235,25.843,61.9,39,0,3.13,ZW,1714011663
273,burang,30.25,81.1667,28.78,43,8,2.57,CN,1714011664
274,kirakira,-10.4544,161.9205,86.5,72,97,6.02,SB,1714011664
275,saurimo,-9.6608,20.3916,64.96,90,100,3.89,AO,1714011664
276,nicoya,10.1483,-85.452,82.51,65,78,12.12,CR,1714011665
277,naha,26.2125,127.6811,75.97,83,75,9.22,JP,1714011665
278,severo-vostotchnyi bank,39.4112,49.2479,58.96,72,87,8.32,AZ,1714011666
279,weno,7.4515,151.8468,87.75,74,100,8.05,FM,1714011670
280,port saint john's,-31.6229,29.5448,68.14,88,19,7.25,ZA,1714011671
281,fuglafjordur,62.244,-6.814,36.07,78,100,12.35,FO,1714011671
282,makurazaki,31.2667,130.3167,63.52,66,68,9.33,JP,1714011672
283,rosignol,6.2833,-57.5333,76.68,80,96,3.87,GY,1714011672
284,kingston,17.997,-76.7936,83.35,79,20,10.36,JM,1714011462
285,haradok,55.4624,29.9816,46.36,98,100,10.02,BY,1714011673
286,tura,25.5198,90.2201,88.43,37,0,7.14,IN,1714011434
287,maues,-3.3836,-57.7186,75.18,99,100,0.45,BR,1714011674
288,plettenberg bay,-34.0527,23.3716,60.51,85,55,5.37,ZA,1714011674
289,barth,54.3635,12.7249,37.0,88,17,7.2,DE,1714011677
290,santa cruz,-17.8,-63.1667,78.26,94,75,5.75,BO,1714011495
291,kijang,35.2442,129.2139,67.73,53,3,5.7,KR,1714011678
292,nagqu,31.5,92.0,31.08,67,98,7.58,CN,1714011679
293,coron,11.9986,120.2043,88.43,64,99,12.53,PH,1714011683
294,sretensk,52.2453,117.7093,42.28,64,74,8.81,RU,1714011522
295,nova vicosa,-17.8919,-39.3719,76.87,85,3,6.69,BR,1714011691
296,morehead city,34.7229,-76.726,66.24,83,100,8.05,US,1714011695
297,crieff,56.3727,-3.8389,43.14,67,100,3.04,GB,1714011695
298,badger,64.8,-147.5333,60.67,30,40,4.61,US,1714011696
299,ladario,-19.0047,-57.6017,79.97,69,34,2.06,BR,1714011696
300,tirat karmel,32.7617,34.9719,81.68,38,100,15.64,IL,1714011697
301,callao,-12.0667,-77.15,72.72,78,20,10.36,PE,1714011697
302,vorgashor,67.5833,63.95,4.8,98,100,3.58,RU,1714011700
303,ad dilam,23.9915,47.1627,72.01,16,0,8.21,SA,1714011543
304,varzea da palma,-17.5981,-44.7308,75.04,63,50,0.85,BR,1714011702
305,trenggalek,-8.05,111.7167,85.82,76,59,0.81,ID,1714011703
306,baoqing,46.3317,132.2111,65.53,49,2,14.88,CN,1714011704
307,san juan,-31.5375,-68.5364,59.59,74,2,3.51,AR,1714011705
308,ware,51.8126,-0.0283,39.88,90,96,5.75,GB,1714011706
309,geraldton,-28.7667,114.6,70.21,37,100,26.46,AU,1714011706
310,sirjan,29.452,55.6814,53.82,62,97,8.5,IR,1714011707
311,island harbour,50.724,-1.2758,42.03,81,77,1.01,GB,1714011587
312,nemuro,43.3236,145.575,43.38,98,100,23.2,JP,1714011643
313,san pedro pochutla,15.7333,-96.4667,83.91,53,7,4.81,MX,1714011709
314,kaoma,-14.7833,24.8,57.13,55,0,4.65,ZM,1714011712
315,miles city,46.4083,-105.8406,68.97,21,0,4.61,US,1714011444
316,wulingyuan,29.3494,110.5441,64.08,63,100,3.13,CN,1714011713
317,chernyshevskiy,63.0128,112.4714,21.78,71,98,8.72,RU,1714011714
318,leiston,52.2061,1.5776,37.89,91,61,7.83,GB,1714011715
319,khandyga,62.6667,135.6,29.52,83,100,8.34,RU,1714011715
320,mil'kovo,55.6078,37.7956,51.94,81,100,15.03,RU,1714011716
321,aldan,58.6031,125.3894,27.75,87,100,8.95,RU,1714011716
322,bathsheba,13.2167,-59.5167,81.21,83,40,17.27,BB,1714011717
323,maragogi,-9.0122,-35.2225,78.93,81,91,1.72,BR,1714011717
324,dikhil,11.5,42.1667,78.69,60,46,4.9,DJ,1714011718
325,naryn,41.4287,75.9911,48.04,51,46,1.57,KG,1714011719
326,yuzhno-kurilsk,44.0306,145.8556,41.38,99,100,15.01,RU,1714011719
327,arno,60.1167,18.6333,35.78,83,100,3.83,SE,1714011720
328,nola,40.922,14.5329,55.26,90,64,2.04,IT,1714011721
329,alice springs,-23.7,133.8833,65.75,30,0,12.66,AU,1714011722
330,kavieng,-2.5744,150.7967,85.3,75,76,12.17,PG,1714011724
331,simplicio mendes,-7.8539,-41.9103,76.12,64,1,4.59,BR,1714011724
332,turpan,42.9333,89.1667,79.77,17,100,10.02,CN,1714011725
333,luderitz,-26.6481,15.1594,61.61,68,63,12.57,NA,1714011444
334,new amsterdam,6.25,-57.5167,75.9,82,97,2.82,GY,1714011726
335,dizangue,3.7667,9.9833,76.35,96,100,0.72,CM,1714011726
336,polyarnyy,69.1989,33.4478,27.25,92,100,5.12,RU,1714011727
337,chibougamau,49.9168,-74.3659,15.42,67,0,6.91,CA,1714011480
338,coahuayana de hidalgo,18.7,-103.6583,72.86,83,2,1.12,MX,1714011728
339,sisimiut,66.9395,-53.6735,31.06,77,75,34.54,GL,1714011668
340,ponta delgada,37.7333,-25.6667,59.72,67,75,11.5,PT,1714011729
341,nuku'alofa,-21.1333,-175.2,84.54,79,75,12.66,TO,1714011732
342,aykhal,66.0,111.5,17.42,89,100,20.89,RU,1714011529
343,port lincoln,-34.7333,135.8667,62.83,59,0,11.56,AU,1714011733
344,mengcheng chengguanzhen,33.2661,116.566,74.82,47,48,6.11,CN,1714011734
345,klyuchi,52.2667,79.1667,33.57,43,1,9.69,RU,1714011735
346,itoman,26.1247,127.6694,76.08,83,75,5.75,JP,1714011735
347,sao joao da barra,-21.6403,-41.0511,75.72,86,4,6.67,BR,1714011736
348,mount pleasant,32.7941,-79.8626,68.22,78,0,10.36,US,1714011736
349,udachny,66.4167,112.4,15.44,92,100,16.96,RU,1714011742
350,constantia,44.1833,28.65,52.7,77,97,5.3,RO,1714011743
351,acarau,-2.8856,-40.12,78.85,85,61,8.95,BR,1714011743
352,viedma,-40.8135,-62.9967,53.37,46,100,17.4,AR,1714011639
353,delvada,20.7667,71.0333,79.34,61,0,9.37,IN,1714011747
354,freeport,40.6576,-73.5832,59.36,58,73,3.0,US,1714011748
355,zahedan,29.4963,60.8629,55.31,94,20,4.61,IR,1714011748
356,nizhneudinsk,54.9076,99.0276,32.07,70,100,5.32,RU,1714011749
357,maffra,-37.9667,146.9833,62.37,50,10,17.43,AU,1714011750
358,paphos,34.7667,32.4167,82.18,16,96,6.91,CY,1714011750
359,minas de marcona,-15.2119,-75.1103,61.99,87,100,11.1,PE,1714011754
360,jamestown,42.097,-79.2353,40.59,94,100,5.75,US,1714011602
361,pedernales,18.0384,-71.744,81.25,76,93,2.19,DO,1714011755
362,micheweni,-4.9667,39.8333,79.14,89,100,14.27,TZ,1714011758
363,floro,61.5996,5.0328,35.67,93,100,6.91,NO,1714011540
364,umm kaddadah,13.6017,26.6876,77.25,8,1,9.62,SD,1714011760
365,damulog,7.4836,124.9431,95.9,30,63,0.89,PH,1714011762
366,golden valley,45.0097,-93.3491,55.58,42,0,12.66,US,1714011765
367,colonia del sacramento,-34.4667,-57.85,57.45,74,90,11.56,UY,1714011766
368,onitsha,6.1454,6.7885,80.08,87,100,4.41,NG,1714011769
369,kolda,12.8833,-14.95,81.61,30,93,6.93,SN,1714011769
370,lagoa,39.05,-27.9833,58.84,75,6,14.61,PT,1714011770
371,terra santa,-2.1042,-56.4869,75.92,96,78,1.25,BR,1714011771
372,damghan,36.1683,54.348,52.3,51,7,4.68,IR,1714011772
373,new norfolk,-42.7826,147.0587,58.5,73,100,7.54,AU,1714011772
374,saskatoon,52.1168,-106.6345,66.18,27,100,20.71,CA,1714011543
375,sogndal,61.2283,7.1003,35.98,74,100,2.3,NO,1714011774
376,nishinoomote,30.7333,131.0,66.76,77,40,16.11,JP,1714011775
377,zouerate,22.7187,-12.4521,78.3,20,9,7.76,MR,1714011776
378,bel ombre,-4.6167,55.4167,78.64,89,75,23.02,SC,1714011777
379,rabaul,-4.1967,152.1721,86.27,69,20,6.55,PG,1714011777
380,dedovichi,57.5517,29.9502,40.93,95,100,13.91,RU,1714011778
381,rosalie,15.3667,-61.2667,79.5,83,39,9.84,DM,1714011778
382,fuling,29.7022,107.3919,62.55,98,100,1.5,CN,1714011781
383,mahina,-17.5065,-149.489,85.77,74,20,6.91,PF,1714011782
384,shohimardon,39.9839,71.8028,59.77,51,28,5.64,UZ,1714011784
385,jackson,42.4165,-122.8345,65.39,37,20,13.8,US,1714011103
386,dudinka,69.4058,86.1778,18.68,89,22,11.01,RU,1714011547
387,coyhaique,-45.5752,-72.0662,42.75,93,100,3.44,CL,1714011786
388,fort mcmurray,56.7268,-111.381,58.59,33,75,11.5,CA,1714011786
389,revda,56.801,59.9303,32.0,92,100,8.95,RU,1714011589
390,ishigaki,24.3448,124.1572,78.93,89,75,12.66,JP,1714011787
391,mahibadhoo,3.7833,72.9667,84.69,71,100,5.91,MV,1714011788
392,peskovka,59.0448,52.3606,40.71,94,100,6.55,RU,1714011663
393,bamboo flat,11.7,92.7167,89.69,70,20,4.61,IN,1714011788
394,mercedes,-34.6515,-59.4307,54.86,65,67,6.11,AR,1714011583
395,youkounkoun,12.5333,-13.1333,84.04,30,20,8.46,GN,1714011789
396,glace bay,46.1969,-59.957,38.89,97,100,3.44,CA,1714011790
397,mareeba,-17.0,145.4333,84.43,59,49,4.54,AU,1714011790
398,adra,36.7496,-3.0206,59.02,76,100,2.53,ES,1714011791
399,lamarque,-39.423,-65.7021,57.61,45,96,19.82,AR,1714011791
400,aktau,43.65,51.2,48.78,58,86,4.47,KZ,1714011557
401,cabo san lucas,22.8909,-109.9124,82.71,26,0,0.0,MX,1714011684
402,eloy,32.7559,-111.5548,83.68,16,1,15.75,US,1714011793
403,ayr,55.4627,-4.6339,44.58,65,100,11.5,GB,1714011794
404,laojunmiao,39.8333,97.7333,61.39,16,99,4.03,CN,1714011794
405,eagle river,45.9172,-89.2443,40.91,43,0,1.01,US,1714011786
406,galveston,29.3669,-94.9669,74.01,81,0,11.5,US,1714011797
407,ormara,25.2088,64.6357,78.1,82,0,11.48,PK,1714011798
408,paoua,7.2427,16.4406,75.79,69,100,8.61,CF,1714011799
409,tual,-5.6667,132.75,84.36,74,19,8.75,ID,1714011800
410,kisangani,0.5167,25.2,69.89,98,100,0.47,CD,1714011801
411,selkirk,50.1436,-96.8845,60.87,35,4,8.52,CA,1714011670
412,mary,37.0,62.5,69.04,52,100,16.51,TM,1714011803
413,gizo,-8.103,156.8419,85.86,72,88,3.62,SB,1714011804
414,thames,-37.1333,175.5333,64.92,67,100,7.67,NZ,1714011805
415,sosnogorsk,63.6023,53.8817,25.54,95,100,10.0,RU,1714011809
416,karratha,-20.7377,116.8463,86.31,28,47,18.52,AU,1714011809
417,hpa-an,16.8906,97.6333,91.15,59,36,3.22,MM,1714011813
418,daru,-9.0763,143.2092,83.52,85,63,13.06,PG,1714011813
419,tsiombe,-25.3,45.4833,69.91,94,27,8.7,MG,1714011593
420,sur,22.5667,59.5289,80.62,75,0,3.2,OM,1714011820
421,enriquillo,17.9,-71.2333,76.08,89,86,6.76,DO,1714011823
422,sidi qacem,34.2215,-5.7078,59.22,67,100,6.58,MA,1714011824
423,soio,-6.1349,12.3689,79.66,87,99,2.28,AO,1714011715
424,el paraiso,13.8667,-86.55,74.55,67,74,3.2,HN,1714011825
425,north haven,41.3909,-72.8595,55.18,57,0,13.8,US,1714011826
426,porto velho,-8.7619,-63.9039,77.05,94,40,2.3,BR,1714011670
427,wainwright,52.839,-110.8572,60.12,39,100,6.73,CA,1714011827
428,gamba,-2.65,10.0,77.88,94,100,3.27,GA,1714011830
429,n'djamena,12.1067,15.0444,91.36,15,0,5.75,TD,1714011813
430,new plymouth,-39.0667,174.0833,62.82,87,100,12.33,NZ,1714011835
431,aksu,41.1231,80.2644,66.94,23,0,8.34,CN,1714011836
432,ayaviri,-14.8864,-70.5889,46.02,53,30,4.68,PE,1714011836
433,ekangala,-25.6962,28.7492,59.65,36,4,3.94,ZA,1714011837
434,kenai,60.5544,-151.2583,48.29,63,100,10.36,US,1714011840
435,barra do bugres,-15.0725,-57.1811,75.97,83,15,1.5,BR,1714011842
436,north ward,-19.2454,146.8075,84.11,51,40,6.91,AU,1714011842
437,ciudad lazaro cardenas,17.9583,-102.2,77.5,77,0,4.88,MX,1714011843
438,zhenlai,45.8495,123.2973,59.56,22,49,17.6,CN,1714011844
439,nogliki,51.8333,143.1667,53.35,59,51,11.01,RU,1714011610
440,usogorsk,63.4106,48.6872,32.67,96,100,3.96,RU,1714011584
441,ribeira brava,32.65,-17.0667,66.7,63,0,2.51,PT,1714011846
442,kerch,45.3583,36.4758,59.56,80,100,8.99,UA,1714011846
443,bithur,26.6333,80.2833,89.19,16,2,4.07,IN,1714011846
444,ostrovskoye,57.8057,42.2433,38.32,82,94,6.13,RU,1714011847
445,elassona,39.8947,22.1886,47.53,60,88,3.98,GR,1714011847
446,sandnessjoen,66.0217,12.6316,34.32,81,98,3.91,NO,1714011767
447,alibag,18.6411,72.8792,84.27,71,0,6.98,IN,1714011848
448,sambava,-14.2667,50.1667,75.85,86,12,9.13,MG,1714011848
449,russkiy,43.0147,131.8642,64.26,92,0,8.03,RU,1714011849
450,xining,36.6167,101.7667,53.46,43,0,1.88,CN,1714011742
451,allapalli,19.4167,80.0667,90.64,31,38,1.61,IN,1714011850
452,iecava,56.5986,24.2022,42.62,97,100,7.67,LV,1714011850
453,illizi,26.4833,8.4667,66.0,25,0,4.72,DZ,1714011851
454,yelizavetinskaya,45.0445,38.7958,68.09,61,92,9.28,RU,1714011666
455,north bend,43.4065,-124.2243,59.23,82,20,6.91,US,1714011857
456,roma,43.2128,-75.4557,36.73,57,0,6.91,US,1714011857
457,comodoro rivadavia,-45.8667,-67.5,58.86,41,0,14.97,AR,1714011590
458,rome,34.257,-85.1647,64.81,73,0,3.44,US,1714011584
459,helong,42.5397,128.9972,70.75,31,0,13.96,CN,1714011859
460,pereira barreto,-20.6383,-51.1092,73.15,64,71,6.35,BR,1714011861
461,moyynkum,44.2914,72.9469,62.98,67,100,4.47,KZ,1714011861
462,sechura,-5.5569,-80.8222,74.1,75,97,13.58,PE,1714011862
463,muisne,0.6,-80.0333,78.94,89,99,7.83,EC,1714011863
464,north tamworth,-31.0778,150.9261,68.11,56,100,6.91,AU,1714011864
465,kosh-agach,50.0,88.6667,19.31,69,75,7.0,RU,1714011864
466,vega de alatorre,20.0333,-96.6333,77.34,92,21,6.93,MX,1714011606
467,genhe,50.7833,121.5167,43.99,38,4,12.91,CN,1714011868
468,carnarvon,-24.8667,113.6333,82.02,38,41,18.86,AU,1714011869
469,kavaratti,10.5669,72.642,85.21,68,100,6.29,IN,1714011869
470,matane,48.8286,-67.522,26.83,95,100,22.48,CA,1714011870
471,enguera,38.9797,-0.6868,52.77,70,70,4.79,ES,1714011871
472,ebon,4.582,168.6964,82.6,82,36,14.34,MH,1714011872
473,cole harbour,44.6724,-63.4751,45.79,69,100,7.0,CA,1714011875
474,joaquin v. gonzalez,-25.0833,-64.1833,59.2,96,100,4.47,AR,1714011857
475,charters towers,-20.1,146.2667,82.02,37,80,9.95,AU,1714011830
476,neiafu,-18.65,-173.9833,86.68,79,20,8.05,TO,1714011877
477,ghatsila,22.6,86.4833,84.65,16,1,4.05,IN,1714011877
478,urzhar,47.093,81.6294,51.57,53,100,7.52,KZ,1714011881
479,kita,13.0349,-9.4895,88.83,15,28,3.53,ML,1714011881
480,tweed heads,-28.1817,153.547,81.21,61,99,10.36,AU,1714011885
481,ternate,0.8,127.4,86.61,63,1,3.24,ID,1714011885
482,arkhangel'sk,64.5401,40.5433,33.91,100,100,2.24,RU,1714011704
483,san patricio,28.017,-97.5169,75.83,86,43,12.59,US,1714011889
484,newman,37.3138,-121.0208,66.43,65,67,1.01,US,1714011889
485,puerto deseado,-47.7503,-65.8938,55.06,57,100,24.07,AR,1714011892
486,kiama,-34.6833,150.8667,72.37,54,1,6.49,AU,1714011893
487,ciudad bolivar,8.1222,-63.5497,89.08,47,99,12.93,VE,1714011897
488,myeik,12.4333,98.6,86.79,68,53,8.41,MM,1714011829
489,conduaga,8.862,117.4893,91.2,56,100,2.75,PH,1714011899
490,awjilah,29.1081,21.2869,63.84,45,98,8.52,LY,1714011900
491,okha,53.5739,142.9478,53.26,63,31,15.01,RU,1714011901
492,torghay,49.6339,63.4981,52.68,61,100,19.82,KZ,1714011901
493,al kharijah,25.4514,30.5464,81.99,11,49,6.06,EG,1714011902
494,guangyuan,32.442,105.823,70.07,62,94,2.01,CN,1714011902
495,alofi,-19.0595,-169.9187,84.09,65,43,6.91,NU,1714011903
496,taroa,8.7058,171.2275,82.58,77,72,18.79,MH,1714011904
497,hinton,53.4001,-117.5857,42.62,87,75,6.13,CA,1714011904
498,constitucion,-35.3333,-72.4167,54.1,63,96,4.52,CL,1714011752
499,tres isletas,-26.3407,-60.4321,70.21,98,100,6.24,AR,1714011908
500,sao joao do piaui,-8.3581,-42.2467,77.18,63,11,3.71,BR,1714011908
501,ironwood,46.4547,-90.171,37.74,64,0,0.0,US,1714011909
502,hun,29.1268,15.9477,60.19,67,0,17.31,LY,1714011909
503,volksrust,-27.3654,29.8818,53.89,56,89,0.6,ZA,1714011910
504,choyr,46.3611,108.3611,36.61,74,100,5.53,MN,1714011910
505,shetpe,44.1667,52.1167,59.99,44,99,2.73,KZ,1714011910
506,qamdo,31.1667,97.2333,37.49,67,95,4.52,CN,1714011838
507,orange walk,17.8333,-88.8333,77.25,79,0,7.36,BZ,1714011911
508,willowmore,-33.2926,23.4895,55.96,91,38,2.55,ZA,1714011912
509,siklos,45.855,18.2975,40.24,100,48,4.61,HU,1714011912
510,olinda,-8.0089,-34.8553,83.93,79,40,8.05,BR,1714011893
511,pathein,16.7833,94.7333,90.37,56,1,8.28,MM,1714011913
512,turbat,26.0023,63.044,77.79,76,75,4.23,PK,1714011913
513,moonah,-42.85,147.3,58.71,62,75,18.41,AU,1714011914
514,jose pedro varela,-33.45,-54.5333,48.92,89,0,3.96,UY,1714011914
515,vernon,50.2581,-119.2691,62.62,41,68,5.01,CA,1714011784
516,pinheiro machado,-31.5783,-53.3811,51.06,90,87,3.67,BR,1714011915
517,liuduzhai,27.3661,110.935,69.42,93,100,3.29,CN,1714011915
518,barcelos,41.5388,-8.6151,57.85,75,100,3.71,PT,1714011847
519,freetown,8.484,-13.2299,80.31,78,40,11.5,SL,1714011920
520,sinabang,2.4803,96.3801,83.68,80,100,2.13,ID,1714011715
521,kolondieba,11.0882,-6.8926,89.04,42,100,6.69,ML,1714011921
522,cova figueira,14.8905,-24.2934,64.33,76,75,5.23,CV,1714011922
523,nyurba,63.2842,118.3319,20.77,77,100,10.42,RU,1714011925
524,guymon,36.6828,-101.4816,62.6,82,20,10.36,US,1714011925
525,santaluz,-11.2558,-39.3747,72.12,95,4,5.17,BR,1714011926
526,bovalino,38.149,16.174,54.34,77,21,7.27,IT,1714011926
527,fort st. john,56.2499,-120.8529,48.09,34,75,13.8,CA,1714011927
528,fale old settlement,-9.3852,-171.2468,85.26,74,22,10.54,TK,1714011927
529,filadelfia,39.9523,-75.1638,62.49,53,75,11.5,US,1714011636
530,akcaabat,41.0212,39.5715,66.07,63,40,5.75,TR,1714011929
531,bani walid,31.7566,13.9942,52.88,69,0,13.22,LY,1714011929
532,middelburg,-25.7751,29.4648,59.02,39,6,2.8,ZA,1714011930
533,labytnangi,66.6572,66.4183,3.38,99,76,0.76,RU,1714011761
534,juva,56.4368,57.9478,42.03,92,81,0.81,RU,1714011931
535,upington,-28.4478,21.2561,61.18,33,0,3.44,ZA,1714011717
536,madera,37.1666,-119.8343,62.98,80,100,4.25,US,1714011871
537,pacocha,-17.5833,-71.3333,67.48,90,54,5.41,PE,1714011934
538,limon,10.0,-83.0333,77.05,84,100,2.26,CR,1714011934
539,antsohihy,-14.8796,47.9875,73.42,85,100,3.13,MG,1714011935
540,malindi,-3.2175,40.1191,79.83,85,100,16.69,KE,1714011935
541,ust'-kulom,61.6864,53.6902,29.12,97,100,6.8,RU,1714011879
542,ancud,-41.8697,-73.8203,52.77,86,18,20.74,CL,1714011733
543,mountain home,43.133,-115.6912,59.14,67,40,9.22,US,1714011937
544,antigonish,45.6169,-61.9986,44.82,95,100,7.29,CA,1714011938
545,mantua,45.1667,10.7833,47.35,90,95,1.01,IT,1714011710
546,hobyo,5.3505,48.5268,84.67,75,39,9.1,SO,1714011941
547,ulladulla,-35.35,150.4667,61.36,52,1,6.46,AU,1714011945
548,masuguru,-11.3667,38.4167,71.19,99,95,2.73,TZ,1714011946
549,lazaro cardenas,17.9583,-102.2,77.5,77,0,4.88,MX,1714011728
550,la'ie,21.6477,-157.9253,80.56,89,42,8.99,US,1714011948
551,ola,59.5833,151.2833,32.14,95,100,2.71,RU,1714011949
552,itamaraca,-7.7478,-34.8256,84.25,77,15,6.31,BR,1714011788
553,lusaka,-15.4067,28.2871,60.03,48,2,5.97,ZM,1714011951
554,yicheng,31.3705,119.8703,61.79,81,99,9.82,CN,1714011951
